[
  {
    "id": "1",
    "code": "htsd",
    "name": "恒泰实达",
    "longitude": 116.1864964,
    "latitude": 40.0702513,
    "count": 160,
    "year": 2020
  },

  {
    "id": "2",
    "name": "北京分公司",
    "longitude": 116.4373176,
    "latitude": 39.86543812,
    "count": 43,
    "year": 2020
  },

  {
    "id": "3",
    "name": "成都分公司",
    "longitude": 104.0539843,
    "latitude": 30.58830977,
    "count": 59,
    "year": 2020
  },
  {
    "id": "4",
    "name": "广州分公司",
    "longitude": 113.4236578,
    "latitude": 23.16702248,
    "count": 60,
    "year": 2020
  },
  {
    "id": "5",
    "name": "辽宁分公司",
    "longitude": 123.4603162,
    "latitude": 41.72372454,
    "count": 17,
    "year": 2020
  },
  {
    "id": "6",
    "name": "上海分公司",
    "longitude": 121.5941695,
    "latitude": 31.21236808,
    "count": 81,
    "year": 2020
  },

  {
    "id": "8",
    "name": "北京分公司",
    "longitude": 116.1864964,
    "latitude": 40.0702513,
    "count": 3,
    "year": 2021
  },

  {
    "id": "9",
    "name": "成都分公司",
    "longitude": 104.0539843,
    "latitude": 30.58830977,
    "count": 11,
    "year": 2021
  },
  {
    "id": "10",
    "name": "广州分公司",
    "longitude": 113.4236578,
    "latitude": 23.16702248,
    "count": 12,
    "year": 2021
  },
  {
    "id": "11",
    "name": "辽宁分公司",
    "longitude": 123.4603162,
    "latitude": 41.72372454,
    "count": 3,
    "year": 2021
  },
  {
    "id": "12",
    "name": "上海分公司",
    "longitude": 121.5941695,
    "latitude": 31.21236808,
    "count": 12,
    "year": 2021
  }
]
